<?xml version="1.0" encoding="utf-8" ?>
<kml xmlns="http://www.opengis.net/kml/2.2">
<Document id="root_doc">
<Folder><name>Ruas_da_Cidadania</name>
  <Placemark>
	<name>Bairro Novo</name>
      <Point><coordinates>-49.265883184105896,-25.545182841043559</coordinates></Point>
  </Placemark>
  <Placemark>
	<name>Boa Vista</name>
      <Point><coordinates>-49.232364669692558,-25.385071106265478</coordinates></Point>
  </Placemark>
  <Placemark>
	<name>Boqueirão</name>
      <Point><coordinates>-49.237868506365402,-25.501350327929487</coordinates></Point>
  </Placemark>
  <Placemark>
	<name>Cajuru</name>
      <Point><coordinates>-49.220626721767758,-25.441765653737253</coordinates></Point>
  </Placemark>
  <Placemark>
	<name>Cic</name>
      <Point><coordinates>-49.319593786980896,-25.514492719747576</coordinates></Point>
  </Placemark>
  <Placemark>
	<name>Fazendinha-Portão</name>
      <Point><coordinates>-49.326718133720959,-25.478079277768444</coordinates></Point>
  </Placemark>
  <Placemark>
	<name>Matriz</name>
      <Point><coordinates>-49.272158059810252,-25.435566435321359</coordinates></Point>
  </Placemark>
  <Placemark>
	<name>Pinheirinho</name>
      <Point><coordinates>-49.295044239722486,-25.513945987471889</coordinates></Point>
  </Placemark>
  <Placemark>
	<name>Santa Felicidade</name>
      <Point><coordinates>-49.330040194188911,-25.400685621599983</coordinates></Point>
  </Placemark>
  <Placemark>
	<name>Tatuquara</name>
      <Point><coordinates>-49.331728621579423,-25.575400689582498</coordinates></Point>
  </Placemark>
</Folder>
</Document></kml>
